{
"type": "FeatureCollection",
"name": "Ecole",
"crs": { "type": "name", "properties": { "name": "urn:ogc:def:crs:OGC:1.3:CRS84" } },
"features": [
{ "type": "Feature", "properties": { "osm_id": "6970486432", "code": 2082, "fclass": "school", "name": "DAARA MODERNE" }, "geometry": { "type": "Point", "coordinates": [ -15.9005427, 13.765928 ] } },
{ "type": "Feature", "properties": { "osm_id": "6970486436", "code": 2082, "fclass": "school", "name": "ECOLE PRIVEE" }, "geometry": { "type": "Point", "coordinates": [ -15.9034449, 13.7627289 ] } },
{ "type": "Feature", "properties": { "osm_id": "6970486442", "code": 2082, "fclass": "school", "name": "ECOLE PRIVEE ARABE" }, "geometry": { "type": "Point", "coordinates": [ -15.901444, 13.7581749 ] } },
{ "type": "Feature", "properties": { "osm_id": "6970486443", "code": 2082, "fclass": "school", "name": "ECOLE PRIMAIRE DE TAIBA NIASSENE" }, "geometry": { "type": "Point", "coordinates": [ -15.9039223, 13.755455 ] } },
{ "type": "Feature", "properties": { "osm_id": "6970486444", "code": 2082, "fclass": "school", "name": "ECOLE ELEMENTAIRE EL I NIASSE" }, "geometry": { "type": "Point", "coordinates": [ -15.9054539, 13.7641773 ] } },
{ "type": "Feature", "properties": { "osm_id": "6970486445", "code": 2082, "fclass": "school", "name": "LYCEE DE TAIBA NIASSENE" }, "geometry": { "type": "Point", "coordinates": [ -15.9053922, 13.767043 ] } },
{ "type": "Feature", "properties": { "osm_id": "10579312220", "code": 2082, "fclass": "school", "name": null }, "geometry": { "type": "Point", "coordinates": [ -15.5836625, 13.7689176 ] } },
{ "type": "Feature", "properties": { "osm_id": "10579312221", "code": 2082, "fclass": "school", "name": null }, "geometry": { "type": "Point", "coordinates": [ -15.5831442, 13.7694644 ] } }
]
}
